[{"Unnamed: 0":0,"program_name":"Haley House","program_type":"Food","address":"23 Dartmouth St, Boston, MA 02116","Link":"https:\/\/haleyhouse.org\/","lat":42.3437214,"lon":-71.0739074,"color":"#9FE2BF","distance":1.2824448877},{"Unnamed: 0":1,"program_name":"East Boston Community Soup","program_type":"Food","address":"28 Paris St, Boston, MA 02128","Link":"https:\/\/ebcsk.org\/","lat":42.3700527,"lon":-71.0401659,"color":"#9FE2BF","distance":3.4010339175},{"Unnamed: 0":2,"program_name":"Boston HERC","program_type":"Education","address":"62 Northampton St, Boston, MA 02118","Link":"https:\/\/www.bostonherc.org\/mission-and-values\/","lat":42.3344855,"lon":-71.076011,"color":"#40E0D0","distance":1.4318012382},{"Unnamed: 0":3,"program_name":"Boston University Upward Bound","program_type":"Education","address":"2 Silber Way, Boston, MA 02215","Link":"https:\/\/www.bu.edu\/ub\/","lat":42.3496967,"lon":-71.1008518,"color":"#40E0D0","distance":0.2387815255},{"Unnamed: 0":4,"program_name":"St. Francis House","program_type":"Shelter","address":"39 Boylston StBoston, MA 02116","Link":"https:\/\/stfrancishouse.org\/","lat":42.3524148,"lon":-71.0635366,"color":"#DFFF00","distance":1.840372755},{"Unnamed: 0":5,"program_name":"HomeBase","program_type":"Shelter","address":"1411 Tremont Street, Boston, MA 02120-3401","Link":"https:\/\/www.metrohousingboston.org\/what-we-do\/specialized-services\/homebase\/","lat":42.3318595,"lon":-71.0956305,"color":"#DFFF00","distance":1.0341550931},{"Unnamed: 0":6,"program_name":"Fenway Health","program_type":"Healthcare","address":"1340 Boylston Street, Boston, MA 02215","Link":"https:\/\/fenwayhealth.org\/about\/history\/","lat":42.3440746,"lon":-71.0989723,"color":"#FF7F50","distance":0.1780666894},{"Unnamed: 0":7,"program_name":"Boston Healthcare for the Homeless program","program_type":"Healthcare","address":"780 Albany Street, Boston, MA 02118","Link":"https:\/\/www.bhchp.org\/","lat":42.3336641,"lon":-71.073056,"color":"#FF7F50","distance":1.5880331598},{"Unnamed: 0":8,"program_name":"Boston Breastfeeding ","program_type":"Maternal Support","address":"260 Washington Street, Dorchester","Link":"https:\/\/bostonbreastfeeding.weebly.com\/greater-boston-calendar.html","lat":42.3016056,"lon":-71.0766077,"color":"#CCCCFF","distance":3.3131325169},{"Unnamed: 0":9,"program_name":"Boston Children's Hospital Maternal Fetal Care","program_type":"Maternal Support","address":"300 Longwood Ave, Boston, MA 02115","Link":"https:\/\/www.childrenshospital.org\/programs\/maternal-fetal-care-center\/research-innovation","lat":42.3375584,"lon":-71.1055611,"color":"#CCCCFF","distance":0.7199311698},{"Unnamed: 0":10,"program_name":"Massachusetts Behavioral Health Access (MABHA)","program_type":"Mental Support","address":"1000 Washington St Ste 310, Boston, MA 02118","Link":"https:\/\/www.mabhaccess.com\/Home.aspx","lat":42.3458526,"lon":-71.0643498,"color":"#DE3163","distance":1.755871936},{"Unnamed: 0":11,"program_name":"Solomon Carter Fuller Mental Health Center","program_type":"Mental Support","address":"85 E Newton St, Boston, MA 02118","Link":"https:\/\/www.mass.gov\/locations\/metro-boston-mental-health-unit-at-dr-solomon-carter-fuller-mental-health-center","lat":42.3362574,"lon":-71.070829,"color":"#DE3163","distance":1.594757858},{"Unnamed: 0":12,"program_name":"Boston Maternal Fetal Clinic","program_type":"Maternal Support","address":"CHL Monan Off, 1 Brookline Pl, Brookline, MA 02445","Link":"http:\/\/www.bostonmfm.org\/","lat":42.332834,"lon":-71.1150208,"color":"#CCCCFF","distance":1.2687690231},{"Unnamed: 0":13,"program_name":"Yawkey Child Care Center","program_type":"Child Care","address":"185 Columbia Road, Dorchester, MA 02121","Link":"https:\/\/www.ccab.org\/family-youth-services\/child-care-services\/","lat":42.3062543,"lon":-71.0767997,"color":"#6495ED","distance":3.0091432796},{"Unnamed: 0":17,"program_name":"Laboure Child Care Center","program_type":"Child Care","address":"275 West Broadway, Boston, MA 02127","Link":"https:\/\/www.ccab.org\/family-youth-services\/child-care-services\/","lat":42.3387921,"lon":-71.0514018,"color":"#6495ED","distance":2.477277017},{"Unnamed: 0":19,"program_name":"Packages of Hope","program_type":"Food","address":"550 Dudley Street, Roxbury, MA 02119","Link":"https:\/\/www.lilyshopefoundation.org\/packageofhope","lat":42.3216126,"lon":-71.0720995,"color":"#9FE2BF","distance":2.200872841},{"Unnamed: 0":20,"program_name":"MassHire Downtown Boston Career Center","program_type":"Employment","address":"75 Federal St 3rd Floor","Link":"https:\/\/www.masshiredowntownboston.org\/","lat":42.3549953,"lon":-71.0568204,"color":"#FFBF00","distance":2.2164485596},{"Unnamed: 0":21,"program_name":"Operation ABLE","program_type":"Employment","address":"98 N Washington St Suite 200","Link":"https:\/\/operationable.net\/","lat":42.3658676,"lon":-71.0586395,"color":"#FFBF00","distance":2.4407647991}]