[{"Unnamed: 0":0,"serial_number":1,"program_name":"Haley House","program_type":"Food","address":"23 Dartmouth St, Boston, MA 02116","Link":"https:\/\/haleyhouse.org\/","lat":42.3437214,"lon":-71.0739074,"distance":1.5586599376},{"Unnamed: 0":1,"serial_number":2,"program_name":"East Boston Community Soup","program_type":"Food","address":"28 Paris St, Boston, MA 02128","Link":"https:\/\/ebcsk.org\/","lat":42.3700527,"lon":-71.0401659,"distance":3.5117620296},{"Unnamed: 0":2,"serial_number":3,"program_name":"Boston HERC","program_type":"Education","address":"62 Northampton St, Boston, MA 02118","Link":"https:\/\/www.bostonherc.org\/mission-and-values\/","lat":42.3344855,"lon":-71.076011,"distance":1.7529199206},{"Unnamed: 0":3,"serial_number":4,"program_name":"Boston University Upward Bound","program_type":"Education","address":"2 Silber Way, Boston, MA 02215","Link":"https:\/\/www.bu.edu\/ub\/","lat":42.3496967,"lon":-71.1008518,"distance":0.1223612906},{"Unnamed: 0":4,"serial_number":5,"program_name":"St. Francis House","program_type":"Shelter","address":"39 Boylston StBoston, MA 02116","Link":"https:\/\/stfrancishouse.org\/","lat":42.3524148,"lon":-71.0635366,"distance":2.0364630681},{"Unnamed: 0":5,"serial_number":6,"program_name":"HomeBase","program_type":"Shelter","address":"1411 Tremont Street, Boston, MA 02120-3401","Link":"https:\/\/www.metrohousingboston.org\/what-we-do\/specialized-services\/homebase\/","lat":42.3318595,"lon":-71.0956305,"distance":1.3067120363},{"Unnamed: 0":6,"serial_number":7,"program_name":"Fenway Health","program_type":"Healthcare","address":"1340 Boylston Street, Boston, MA 02215","Link":"https:\/\/fenwayhealth.org\/about\/history\/","lat":42.3440746,"lon":-71.0989723,"distance":0.457782496},{"Unnamed: 0":7,"serial_number":9,"program_name":"Boston Healthcare for the Homeless program","program_type":"Healthcare","address":"780 Albany Street, Boston, MA 02118","Link":"https:\/\/www.bhchp.org\/","lat":42.3336641,"lon":-71.073056,"distance":1.9079787583},{"Unnamed: 0":8,"serial_number":10,"program_name":"Boston Breastfeeding ","program_type":"Maternal Support","address":"260 Washington Street, Dorchester","Link":"https:\/\/bostonbreastfeeding.weebly.com\/greater-boston-calendar.html","lat":42.3016056,"lon":-71.0766077,"distance":3.6069837068},{"Unnamed: 0":9,"serial_number":11,"program_name":"Boston Children's Hospital Maternal Fetal Care","program_type":"Maternal Support","address":"300 Longwood Ave, Boston, MA 02115","Link":"https:\/\/www.childrenshospital.org\/programs\/maternal-fetal-care-center\/research-innovation","lat":42.3375584,"lon":-71.1055611,"distance":0.8617154211},{"Unnamed: 0":10,"serial_number":12,"program_name":"Massachusetts Behavioral Health Access (MABHA)","program_type":"Mental Health","address":"1000 Washington St Ste 310, Boston, MA 02118","Link":"https:\/\/www.mabhaccess.com\/Home.aspx","lat":42.3458526,"lon":-71.0643498,"distance":2.0071300893},{"Unnamed: 0":11,"serial_number":13,"program_name":"Solomon Carter Fuller Mental Health Center","program_type":"Mental Health","address":"85 E Newton St, Boston, MA 02118","Link":"https:\/\/www.mass.gov\/locations\/metro-boston-mental-health-unit-at-dr-solomon-carter-fuller-mental-health-center","lat":42.3362574,"lon":-71.070829,"distance":1.9062742113}]