[{"Unnamed: 0":0,"program_name":"Haley House","program_type":"Food","address":"23 Dartmouth St, Boston, MA 02116","Link":"https:\/\/haleyhouse.org\/","lat":42.3437214,"lon":-71.0739074,"distance":1.6767380543},{"Unnamed: 0":1,"program_name":"East Boston Community Soup","program_type":"Food","address":"28 Paris St, Boston, MA 02128","Link":"https:\/\/ebcsk.org\/","lat":42.3700527,"lon":-71.0401659,"distance":3.5978885892},{"Unnamed: 0":2,"program_name":"Boston HERC","program_type":"Education","address":"62 Northampton St, Boston, MA 02118","Link":"https:\/\/www.bostonherc.org\/mission-and-values\/","lat":42.3344855,"lon":-71.076011,"distance":1.8666048368},{"Unnamed: 0":3,"program_name":"Boston University Upward Bound","program_type":"Education","address":"2 Silber Way, Boston, MA 02215","Link":"https:\/\/www.bu.edu\/ub\/","lat":42.3496967,"lon":-71.1008518,"distance":0.2389907169},{"Unnamed: 0":4,"program_name":"St. Francis House","program_type":"Shelter","address":"39 Boylston StBoston, MA 02116","Link":"https:\/\/stfrancishouse.org\/","lat":42.3524148,"lon":-71.0635366,"distance":2.1439616963},{"Unnamed: 0":5,"program_name":"HomeBase","program_type":"Shelter","address":"1411 Tremont Street, Boston, MA 02120-3401","Link":"https:\/\/www.metrohousingboston.org\/what-we-do\/specialized-services\/homebase\/","lat":42.3318595,"lon":-71.0956305,"distance":1.3826417785},{"Unnamed: 0":6,"program_name":"Fenway Health","program_type":"Healthcare","address":"1340 Boylston Street, Boston, MA 02215","Link":"https:\/\/fenwayhealth.org\/about\/history\/","lat":42.3440746,"lon":-71.0989723,"distance":0.5526616333},{"Unnamed: 0":7,"program_name":"Boston Healthcare for the Homeless program","program_type":"Healthcare","address":"780 Albany Street, Boston, MA 02118","Link":"https:\/\/www.bhchp.org\/","lat":42.3336641,"lon":-71.073056,"distance":2.0224016687},{"Unnamed: 0":8,"program_name":"Boston Breastfeeding ","program_type":"Maternal Support","address":"260 Washington Street, Dorchester","Link":"https:\/\/bostonbreastfeeding.weebly.com\/greater-boston-calendar.html","lat":42.3016056,"lon":-71.0766077,"distance":3.6884680362},{"Unnamed: 0":9,"program_name":"Boston Children's Hospital Maternal Fetal Care","program_type":"Maternal Support","address":"300 Longwood Ave, Boston, MA 02115","Link":"https:\/\/www.childrenshospital.org\/programs\/maternal-fetal-care-center\/research-innovation","lat":42.3375584,"lon":-71.1055611,"distance":0.8951543632},{"Unnamed: 0":10,"program_name":"Massachusetts Behavioral Health Access (MABHA)","program_type":"Mental Support","address":"1000 Washington St Ste 310, Boston, MA 02118","Link":"https:\/\/www.mabhaccess.com\/Home.aspx","lat":42.3458526,"lon":-71.0643498,"distance":2.1228822704},{"Unnamed: 0":11,"program_name":"Solomon Carter Fuller Mental Health Center","program_type":"Mental Support","address":"85 E Newton St, Boston, MA 02118","Link":"https:\/\/www.mass.gov\/locations\/metro-boston-mental-health-unit-at-dr-solomon-carter-fuller-mental-health-center","lat":42.3362574,"lon":-71.070829,"distance":2.0233351902},{"Unnamed: 0":12,"program_name":"Boston Maternal Fetal Clinic","program_type":"Maternal Support","address":"CHL Monan Off, 1 Brookline Pl, Brookline, MA 02445","Link":"http:\/\/www.bostonmfm.org\/","lat":42.332834,"lon":-71.1150208,"distance":1.3171888512},{"Unnamed: 0":13,"program_name":"Yawkey Child Care Center","program_type":"Child Care","address":"185 Columbia Road, Dorchester, MA 02121","Link":"https:\/\/www.ccab.org\/family-youth-services\/child-care-services\/","lat":42.3062543,"lon":-71.0767997,"distance":3.3918141064},{"Unnamed: 0":17,"program_name":"Laboure Child Care Center","program_type":"Child Care","address":"275 West Broadway, Boston, MA 02127","Link":"https:\/\/www.ccab.org\/family-youth-services\/child-care-services\/","lat":42.3387921,"lon":-71.0514018,"distance":2.8767785899},{"Unnamed: 0":19,"program_name":"Packages of Hope","program_type":"Food","address":"550 Dudley Street, Roxbury, MA 02119","Link":"https:\/\/www.lilyshopefoundation.org\/packageofhope","lat":42.3216126,"lon":-71.0720995,"distance":2.6250627406},{"Unnamed: 0":20,"program_name":"MassHire Downtown Boston Career Center","program_type":"Employment","address":"75 Federal St 3rd Floor","Link":"https:\/\/www.masshiredowntownboston.org\/","lat":42.3549953,"lon":-71.0568204,"distance":2.5025171562},{"Unnamed: 0":21,"program_name":"Operation ABLE","program_type":"Employment","address":"98 N Washington St Suite 200","Link":"https:\/\/operationable.net\/","lat":42.3658676,"lon":-71.0586395,"distance":2.6156561685}]